name: 
  - ground_plane
  - Spath
  - xbot-u
pose: 
  - 
    position: 
      x: 0.0
      y: 0.0
      z: 0.0
    orientation: 
      x: 0.0
      y: 0.0
      z: 0.0
      w: 1.0
  - 
    position: 
      x: 0.0
      y: 0.025099999999998346
      z: 0.0
    orientation: 
      x: 0.0
      y: 0.0
      z: 0.0
      w: 1.0
  - 
    position: 
      x: -30.12444961761502
      y: -25.000132753813432
      z: -1.7972392633014422e-05
    orientation: 
      x: -2.285079039632101e-06
      y: -4.164702376173235e-05
      z: 0.00029371487671094124
      w: 0.9999999559959367
twist: 
  - 
    linear: 
      x: 0.0
      y: 0.0
      z: 0.0
    angular: 
      x: 0.0
      y: 0.0
      z: 0.0
  - 
    linear: 
      x: 0.0
      y: 0.0
      z: 0.0
    angular: 
      x: 0.0
      y: 0.0
      z: 0.0
  - 
    linear: 
      x: -9.335983129792925e-06
      y: 0.00010332059852830088
      z: -0.01049354015202427
    angular: 
      x: -0.0007782390349300336
      y: -0.006048400837943684
      z: 8.316331998489244e-05
---
name: 
  - ground_plane
  - Spath
  - xbot-u
pose: 
  - 
    position: 
      x: 0.0
      y: 0.0
      z: 0.0
    orientation: 
      x: 0.0
      y: 0.0
      z: 0.0
      w: 1.0
  - 
    position: 
      x: 0.0
      y: 0.025099999999998346
      z: 0.0
    orientation: 
      x: 0.0
      y: 0.0
      z: 0.0
      w: 1.0
  - 
    position: 
      x: -30.12445369959069
      y: -25.000132790084226
      z: -1.796877478077441e-05
    orientation: 
      x: -2.3617888113459746e-06
      y: -4.164927942191695e-05
      z: 0.00029371252381510274
      w: 0.9999999559963555
twist: 
  - 
    linear: 
      x: 0.0
      y: 0.0
      z: 0.0
    angular: 
      x: 0.0
      y: 0.0
      z: 0.0
  - 
    linear: 
      x: 0.0
      y: 0.0
      z: 0.0
    angular: 
      x: 0.0
      y: 0.0
      z: 0.0
  - 
    linear: 
      x: -9.309830366932212e-06
      y: 9.008182941674546e-05
      z: -0.010498636769459686
    angular: 
      x: -0.000807050583907395
      y: -0.00604864282167295
      z: 7.297350691590576e-05
---
name: 
  - ground_plane
  - Spath
  - xbot-u
pose: 
  - 
    position: 
      x: 0.0
      y: 0.0
      z: 0.0
    orientation: 
      x: 0.0
      y: 0.0
      z: 0.0
      w: 1.0
  - 
    position: 
      x: 0.0
      y: 0.025099999999998346
      z: 0.0
    orientation: 
      x: 0.0
      y: 0.0
      z: 0.0
      w: 1.0
  - 
    position: 
      x: -30.124457785145864
      y: -25.00013273524931
      z: -1.796932407893692e-05
    orientation: 
      x: -2.2557236608207518e-06
      y: -4.16478717292433e-05
      z: 0.00029374323091099975
      w: 0.9999999559876396
twist: 
  - 
    linear: 
      x: 0.0
      y: 0.0
      z: 0.0
    angular: 
      x: 0.0
      y: 0.0
      z: 0.0
  - 
    linear: 
      x: 0.0
      y: 0.0
      z: 0.0
    angular: 
      x: 0.0
      y: 0.0
      z: 0.0
  - 
    linear: 
      x: -9.405554715052195e-06
      y: 0.00010396169115203173
      z: -0.010490746411447167
    angular: 
      x: -0.0007670951600489357
      y: -0.006048612736698705
      z: 8.359293309776166e-05
---
name: 
  - ground_plane
  - Spath
  - xbot-u
pose: 
  - 
    position: 
      x: 0.0
      y: 0.0
      z: 0.0
    orientation: 
      x: 0.0
      y: 0.0
      z: 0.0
      w: 1.0
  - 
    position: 
      x: 0.0
      y: 0.025099999999998346
      z: 0.0
    orientation: 
      x: 0.0
      y: 0.0
      z: 0.0
      w: 1.0
  - 
    position: 
      x: -30.124461867642797
      y: -25.00013277260292
      z: -1.796442037615975e-05
    orientation: 
      x: -2.3279448317039046e-06
      y: -4.165016969327391e-05
      z: 0.0002937404700261353
      w: 0.9999999559881892
twist: 
  - 
    linear: 
      x: 0.0
      y: 0.0
      z: 0.0
    angular: 
      x: 0.0
      y: 0.0
      z: 0.0
  - 
    linear: 
      x: 0.0
      y: 0.0
      z: 0.0
    angular: 
      x: 0.0
      y: 0.0
      z: 0.0
  - 
    linear: 
      x: -9.390857156319626e-06
      y: 8.87441000653324e-05
      z: -0.01050017341061318
    angular: 
      x: -0.0007973163157535888
      y: -0.0060479524317222175
      z: 7.195214657111706e-05
---
name: 
  - ground_plane
  - Spath
  - xbot-u
pose: 
  - 
    position: 
      x: 0.0
      y: 0.0
      z: 0.0
    orientation: 
      x: 0.0
      y: 0.0
      z: 0.0
      w: 1.0
  - 
    position: 
      x: 0.0
      y: 0.025099999999998346
      z: 0.0
    orientation: 
      x: 0.0
      y: 0.0
      z: 0.0
      w: 1.0
  - 
    position: 
      x: -30.124465953320847
      y: -25.00013271964341
      z: -1.7967158080001155e-05
    orientation: 
      x: -2.218640432043524e-06
      y: -4.164849701621368e-05
      z: 0.00029377049078989055
      w: 0.9999999559796886
twist: 
  - 
    linear: 
      x: 0.0
      y: 0.0
      z: 0.0
    angular: 
      x: 0.0
      y: 0.0
      z: 0.0
  - 
    linear: 
      x: 0.0
      y: 0.0
      z: 0.0
    angular: 
      x: 0.0
      y: 0.0
      z: 0.0
  - 
    linear: 
      x: -9.488060138983408e-06
      y: 0.00010200356421344553
      z: -0.010496240317189598
    angular: 
      x: -0.0007592410801304712
      y: -0.006047043311169809
      z: 8.212036125821373e-05
---
name: 
  - ground_plane
  - Spath
  - xbot-u
pose: 
  - 
    position: 
      x: 0.0
      y: 0.0
      z: 0.0
    orientation: 
      x: 0.0
      y: 0.0
      z: 0.0
      w: 1.0
  - 
    position: 
      x: 0.0
      y: 0.025099999999998346
      z: 0.0
    orientation: 
      x: 0.0
      y: 0.0
      z: 0.0
      w: 1.0
  - 
    position: 
      x: -30.124470035394225
      y: -25.000132758841332
      z: -1.7966596738139273e-05
    orientation: 
      x: -2.288685342348292e-06
      y: -4.1650251902450304e-05
      z: 0.0002937670564325062
      w: 0.9999999559804665
twist: 
  - 
    linear: 
      x: 0.0
      y: 0.0
      z: 0.0
    angular: 
      x: 0.0
      y: 0.0
      z: 0.0
  - 
    linear: 
      x: 0.0
      y: 0.0
      z: 0.0
    angular: 
      x: 0.0
      y: 0.0
      z: 0.0
  - 
    linear: 
      x: -9.469228917559185e-06
      y: 8.673798151553761e-05
      z: -0.010508854068353531
    angular: 
      x: -0.0007914109482601602
      y: -0.00604562148501916
      z: 7.04475926614934e-05
---
name: 
  - ground_plane
  - Spath
  - xbot-u
pose: 
  - 
    position: 
      x: 0.0
      y: 0.0
      z: 0.0
    orientation: 
      x: 0.0
      y: 0.0
      z: 0.0
      w: 1.0
  - 
    position: 
      x: 0.0
      y: 0.025099999999998346
      z: 0.0
    orientation: 
      x: 0.0
      y: 0.0
      z: 0.0
      w: 1.0
  - 
    position: 
      x: -30.124474116958154
      y: -25.000132810858656
      z: -1.7975602257358503e-05
    orientation: 
      x: -2.368978001221305e-06
      y: -4.165133029813953e-05
      z: 0.00029375892041458735
      w: 0.9999999559826248
twist: 
  - 
    linear: 
      x: 0.0
      y: 0.0
      z: 0.0
    angular: 
      x: 0.0
      y: 0.0
      z: 0.0
  - 
    linear: 
      x: 0.0
      y: 0.0
      z: 0.0
    angular: 
      x: 0.0
      y: 0.0
      z: 0.0
  - 
    linear: 
      x: -9.382180652601005e-06
      y: 8.456634552093402e-05
      z: -0.010510159247504695
    angular: 
      x: -0.0008226871738075438
      y: -0.006046510368048016
      z: 6.889811302666174e-05
---
name: 
  - ground_plane
  - Spath
  - xbot-u
pose: 
  - 
    position: 
      x: 0.0
      y: 0.0
      z: 0.0
    orientation: 
      x: 0.0
      y: 0.0
      z: 0.0
      w: 1.0
  - 
    position: 
      x: 0.0
      y: 0.025099999999998346
      z: 0.0
    orientation: 
      x: 0.0
      y: 0.0
      z: 0.0
      w: 1.0
  - 
    position: 
      x: -30.12447820124304
      y: -25.000132756914674
      z: -1.798266358155054e-05
    orientation: 
      x: -2.267820755709877e-06
      y: -4.16492973156827e-05
      z: 0.0002937893418050186
      w: 0.999999955974007
twist: 
  - 
    linear: 
      x: 0.0
      y: 0.0
      z: 0.0
    angular: 
      x: 0.0
      y: 0.0
      z: 0.0
  - 
    linear: 
      x: 0.0
      y: 0.0
      z: 0.0
    angular: 
      x: 0.0
      y: 0.0
      z: 0.0
  - 
    linear: 
      x: -9.347858619629217e-06
      y: 0.00010379105618983262
      z: -0.010498136241226202
    angular: 
      x: -0.0007827092245743558
      y: -0.006047253686672865
      z: 8.357586118937198e-05
---
name: 
  - ground_plane
  - Spath
  - xbot-u
pose: 
  - 
    position: 
      x: 0.0
      y: 0.0
      z: 0.0
    orientation: 
      x: 0.0
      y: 0.0
      z: 0.0
      w: 1.0
  - 
    position: 
      x: 0.0
      y: 0.025099999999998346
      z: 0.0
    orientation: 
      x: 0.0
      y: 0.0
      z: 0.0
      w: 1.0
  - 
    position: 
      x: -30.124482282146108
      y: -25.00013279302673
      z: -1.7979729690198454e-05
    orientation: 
      x: -2.3440515687886476e-06
      y: -4.165140358299939e-05
      z: 0.0002937870478487475
      w: 0.9999999559744173
twist: 
  - 
    linear: 
      x: 0.0
      y: 0.0
      z: 0.0
    angular: 
      x: 0.0
      y: 0.0
      z: 0.0
  - 
    linear: 
      x: 0.0
      y: 0.0
      z: 0.0
    angular: 
      x: 0.0
      y: 0.0
      z: 0.0
  - 
    linear: 
      x: -9.319185831045684e-06
      y: 9.054091109101888e-05
      z: -0.01050329079005521
    angular: 
      x: -0.0008115625014615723
      y: -0.006047457943016201
      z: 7.337651050800196e-05
---
name: 
  - ground_plane
  - Spath
  - xbot-u
pose: 
  - 
    position: 
      x: 0.0
      y: 0.0
      z: 0.0
    orientation: 
      x: 0.0
      y: 0.0
      z: 0.0
      w: 1.0
  - 
    position: 
      x: 0.0
      y: 0.025099999999998346
      z: 0.0
    orientation: 
      x: 0.0
      y: 0.0
      z: 0.0
      w: 1.0
  - 
    position: 
      x: -30.124486366502264
      y: -25.000132738175754
      z: -1.7980883532775493e-05
    orientation: 
      x: -2.237701216494308e-06
      y: -4.164987407077337e-05
      z: 0.00029381776139920956
      w: 0.999999955965701
twist: 
  - 
    linear: 
      x: 0.0
      y: 0.0
      z: 0.0
    angular: 
      x: 0.0
      y: 0.0
      z: 0.0
  - 
    linear: 
      x: 0.0
      y: 0.0
      z: 0.0
    angular: 
      x: 0.0
      y: 0.0
      z: 0.0
  - 
    linear: 
      x: -9.4155652292649e-06
      y: 0.00010439729693284528
      z: -0.010495430531730375
    angular: 
      x: -0.0007716305299207643
      y: -0.006047395139963359
      z: 8.397787616208856e-05
---
name: 
  - ground_plane
  - Spath
  - xbot-u
pose: 
  - 
    position: 
      x: 0.0
      y: 0.0
      z: 0.0
    orientation: 
      x: 0.0
      y: 0.0
      z: 0.0
      w: 1.0
  - 
    position: 
      x: 0.0
      y: 0.025099999999998346
      z: 0.0
    orientation: 
      x: 0.0
      y: 0.0
      z: 0.0
      w: 1.0
  - 
    position: 
      x: -30.124490447745185
      y: -25.00013277540604
      z: -1.797644331702486e-05
    orientation: 
      x: -2.3095277009388502e-06
      y: -4.165204926988857e-05
      z: 0.00029381504573945487
      w: 0.9999999559662449
twist: 
  - 
    linear: 
      x: 0.0
      y: 0.0
      z: 0.0
    angular: 
      x: 0.0
      y: 0.0
      z: 0.0
  - 
    linear: 
      x: 0.0
      y: 0.0
      z: 0.0
    angular: 
      x: 0.0
      y: 0.0
      z: 0.0
  - 
    linear: 
      x: -9.398926345464617e-06
      y: 8.917383694079066e-05
      z: -0.010504862637705075
    angular: 
      x: -0.0008018815647241485
      y: -0.0060467150944113835
      z: 7.233191897292553e-05
---
name: 
  - ground_plane
  - Spath
  - xbot-u
pose: 
  - 
    position: 
      x: 0.0
      y: 0.0
      z: 0.0
    orientation: 
      x: 0.0
      y: 0.0
      z: 0.0
      w: 1.0
  - 
    position: 
      x: 0.0
      y: 0.025099999999998346
      z: 0.0
    orientation: 
      x: 0.0
      y: 0.0
      z: 0.0
      w: 1.0
  - 
    position: 
      x: -30.124494529161936
      y: -25.000132825714694
      z: -1.798032938027383e-05
    orientation: 
      x: -2.390545134867623e-06
      y: -4.1653711425103584e-05
      z: 0.00029380753453219063
      w: 0.9999999559681924
twist: 
  - 
    linear: 
      x: 0.0
      y: 0.0
      z: 0.0
    angular: 
      x: 0.0
      y: 0.0
      z: 0.0
  - 
    linear: 
      x: 0.0
      y: 0.0
      z: 0.0
    angular: 
      x: 0.0
      y: 0.0
      z: 0.0
  - 
    linear: 
      x: -9.325423849120863e-06
      y: 8.684185717731919e-05
      z: -0.010503908032072507
    angular: 
      x: -0.0008313619811523812
      y: -0.006048174328108573
      z: 7.066173637645008e-05
---
name: 
  - ground_plane
  - Spath
  - xbot-u
pose: 
  - 
    position: 
      x: 0.0
      y: 0.0
      z: 0.0
    orientation: 
      x: 0.0
      y: 0.0
      z: 0.0
      w: 1.0
  - 
    position: 
      x: 0.0
      y: 0.025099999999998346
      z: 0.0
    orientation: 
      x: 0.0
      y: 0.0
      z: 0.0
      w: 1.0
  - 
    position: 
      x: -30.124498614062272
      y: -25.00013277036429
      z: -1.7981940332534307e-05
    orientation: 
      x: -2.2892441387355976e-06
      y: -4.1652314715939724e-05
      z: 0.00029383847205236935
      w: 0.9999999559593973
twist: 
  - 
    linear: 
      x: 0.0
      y: 0.0
      z: 0.0
    angular: 
      x: 0.0
      y: 0.0
      z: 0.0
  - 
    linear: 
      x: 0.0
      y: 0.0
      z: 0.0
    angular: 
      x: 0.0
      y: 0.0
      z: 0.0
  - 
    linear: 
      x: -9.311642024003967e-06
      y: 0.00010585571973493915
      z: -0.010490571149841896
    angular: 
      x: -0.0007898112018797634
      y: -0.006049290100947772
      z: 8.518397031194151e-05
---
name: 
  - ground_plane
  - Spath
  - xbot-u
pose: 
  - 
    position: 
      x: 0.0
      y: 0.0
      z: 0.0
    orientation: 
      x: 0.0
      y: 0.0
      z: 0.0
      w: 1.0
  - 
    position: 
      x: 0.0
      y: 0.025099999999998346
      z: 0.0
    orientation: 
      x: 0.0
      y: 0.0
      z: 0.0
      w: 1.0
  - 
    position: 
      x: -30.124502696209465
      y: -25.000132805274973
      z: -1.7974063322157008e-05
    orientation: 
      x: -2.3645684682155336e-06
      y: -4.165506257252581e-05
      z: 0.00029383662263714693
      w: 0.999999955959651
twist: 
  - 
    linear: 
      x: 0.0
      y: 0.0
      z: 0.0
    angular: 
      x: 0.0
      y: 0.0
      z: 0.0
  - 
    linear: 
      x: 0.0
      y: 0.0
      z: 0.0
    angular: 
      x: 0.0
      y: 0.0
      z: 0.0
  - 
    linear: 
      x: -9.294471240762527e-06
      y: 9.242528590484606e-05
      z: -0.010495274431710196
    angular: 
      x: -0.0008173749037005776
      y: -0.006049681339144725
      z: 7.485134157202051e-05
---
name: 
  - ground_plane
  - Spath
  - xbot-u
pose: 
  - 
    position: 
      x: 0.0
      y: 0.0
      z: 0.0
    orientation: 
      x: 0.0
      y: 0.0
      z: 0.0
      w: 1.0
  - 
    position: 
      x: 0.0
      y: 0.025099999999998346
      z: 0.0
    orientation: 
      x: 0.0
      y: 0.0
      z: 0.0
      w: 1.0
  - 
    position: 
      x: -30.124506782385073
      y: -25.000132749441807
      z: -1.7971150910067735e-05
    orientation: 
      x: -2.2568113652153655e-06
      y: -4.165409121687908e-05
      z: 0.000293867702450038
      w: 0.9999999559508076
twist: 
  - 
    linear: 
      x: 0.0
      y: 0.0
      z: 0.0
    angular: 
      x: 0.0
      y: 0.0
      z: 0.0
  - 
    linear: 
      x: 0.0
      y: 0.0
      z: 0.0
    angular: 
      x: 0.0
      y: 0.0
      z: 0.0
  - 
    linear: 
      x: -9.409379363516449e-06
      y: 0.00010611487088279972
      z: -0.010487653302488112
    angular: 
      x: -0.0007764184796121853
      y: -0.006049638121379234
      z: 8.533054240547206e-05
---
name: 
  - ground_plane
  - Spath
  - xbot-u
pose: 
  - 
    position: 
      x: 0.0
      y: 0.0
      z: 0.0
    orientation: 
      x: 0.0
      y: 0.0
      z: 0.0
      w: 1.0
  - 
    position: 
      x: 0.0
      y: 0.025099999999998346
      z: 0.0
    orientation: 
      x: 0.0
      y: 0.0
      z: 0.0
      w: 1.0
  - 
    position: 
      x: -30.124510865809448
      y: -25.0001327857984
      z: -1.7963859474834365e-05
    orientation: 
      x: -2.3268088335485666e-06
      y: -4.1656731655177025e-05
      z: 0.00029386531590204793
      w: 0.9999999559512385
twist: 
  - 
    linear: 
      x: 0.0
      y: 0.0
      z: 0.0
    angular: 
      x: 0.0
      y: 0.0
      z: 0.0
  - 
    linear: 
      x: 0.0
      y: 0.0
      z: 0.0
    angular: 
      x: 0.0
      y: 0.0
      z: 0.0
  - 
    linear: 
      x: -9.400052530097146e-06
      y: 9.076760011573939e-05
      z: -0.010497822048087378
    angular: 
      x: -0.0008058977536998546
      y: -0.006048852579688406
      z: 7.359282065156448e-05
---
name: 
  - ground_plane
  - Spath
  - xbot-u
pose: 
  - 
    position: 
      x: 0.0
      y: 0.0
      z: 0.0
    orientation: 
      x: 0.0
      y: 0.0
      z: 0.0
      w: 1.0
  - 
    position: 
      x: 0.0
      y: 0.025099999999998346
      z: 0.0
    orientation: 
      x: 0.0
      y: 0.0
      z: 0.0
      w: 1.0
  - 
    position: 
      x: -30.12451495257448
      y: -25.00013273210836
      z: -1.7965316211787652e-05
    orientation: 
      x: -2.2152820917351176e-06
      y: -4.165529516330981e-05
      z: 0.000293895614206848
      w: 0.9999999559426476
twist: 
  - 
    linear: 
      x: 0.0
      y: 0.0
      z: 0.0
    angular: 
      x: 0.0
      y: 0.0
      z: 0.0
  - 
    linear: 
      x: 0.0
      y: 0.0
      z: 0.0
    angular: 
      x: 0.0
      y: 0.0
      z: 0.0
  - 
    linear: 
      x: -9.510575888710751e-06
      y: 0.00010389067213648171
      z: -0.010494933596639553
    angular: 
      x: -0.0007672690107784087
      y: -0.00604772556698505
      z: 8.366025249232568e-05
---
name: 
  - ground_plane
  - Spath
  - xbot-u
pose: 
  - 
    position: 
      x: 0.0
      y: 0.0
      z: 0.0
    orientation: 
      x: 0.0
      y: 0.0
      z: 0.0
      w: 1.0
  - 
    position: 
      x: 0.0
      y: 0.025099999999998346
      z: 0.0
    orientation: 
      x: 0.0
      y: 0.0
      z: 0.0
      w: 1.0
  - 
    position: 
      x: -30.124519035769357
      y: -25.000132770520832
      z: -1.7964511812573747e-05
    orientation: 
      x: -2.282807729248631e-06
      y: -4.1657169204679915e-05
      z: 0.0002938924783641839
      w: 0.9999999559433391
twist: 
  - 
    linear: 
      x: 0.0
      y: 0.0
      z: 0.0
    angular: 
      x: 0.0
      y: 0.0
      z: 0.0
  - 
    linear: 
      x: 0.0
      y: 0.0
      z: 0.0
    angular: 
      x: 0.0
      y: 0.0
      z: 0.0
  - 
    linear: 
      x: -9.49174111677508e-06
      y: 8.853524392428555e-05
      z: -0.010508722547333538
    angular: 
      x: -0.0007990662060454944
      y: -0.0060460444801416725
      z: 7.191919404005432e-05
---
name: 
  - ground_plane
  - Spath
  - xbot-u
pose: 
  - 
    position: 
      x: 0.0
      y: 0.0
      z: 0.0
    orientation: 
      x: 0.0
      y: 0.0
      z: 0.0
      w: 1.0
  - 
    position: 
      x: 0.0
      y: 0.025099999999998346
      z: 0.0
    orientation: 
      x: 0.0
      y: 0.0
      z: 0.0
      w: 1.0
  - 
    position: 
      x: -30.12452311836625
      y: -25.000132821840307
      z: -1.7974132849873925e-05
    orientation: 
      x: -2.360579317594595e-06
      y: -4.1658265173195996e-05
      z: 0.00029388460870900904
      w: 0.9999999559454259
twist: 
  - 
    linear: 
      x: 0.0
      y: 0.0
      z: 0.0
    angular: 
      x: 0.0
      y: 0.0
      z: 0.0
  - 
    linear: 
      x: 0.0
      y: 0.0
      z: 0.0
    angular: 
      x: 0.0
      y: 0.0
      z: 0.0
  - 
    linear: 
      x: -9.408243903817962e-06
      y: 8.626807923365633e-05
      z: -0.010511230215957412
    angular: 
      x: -0.0008300948130058312
      y: -0.00604664913653783
      z: 7.029709033386018e-05
---
name: 
  - ground_plane
  - Spath
  - xbot-u
pose: 
  - 
    position: 
      x: 0.0
      y: 0.0
      z: 0.0
    orientation: 
      x: 0.0
      y: 0.0
      z: 0.0
      w: 1.0
  - 
    position: 
      x: 0.0
      y: 0.025099999999998346
      z: 0.0
    orientation: 
      x: 0.0
      y: 0.0
      z: 0.0
      w: 1.0
  - 
    position: 
      x: -30.124527203499362
      y: -25.00013276736494
      z: -1.798247987561119e-05
    orientation: 
      x: -2.257176711090141e-06
      y: -4.1656170280387496e-05
      z: 0.0002939152352691995
      w: 0.9999999559367506
twist: 
  - 
    linear: 
      x: 0.0
      y: 0.0
      z: 0.0
    angular: 
      x: 0.0
      y: 0.0
      z: 0.0
  - 
    linear: 
      x: 0.0
      y: 0.0
      z: 0.0
    angular: 
      x: 0.0
      y: 0.0
      z: 0.0
  - 
    linear: 
      x: -9.37896114047189e-06
      y: 0.00010539140183026614
      z: -0.01050034020329757
    angular: 
      x: -0.0007899469984956765
      y: -0.0060471034756765804
      z: 8.489906656146614e-05
---
name: 
  - ground_plane
  - Spath
  - xbot-u
pose: 
  - 
    position: 
      x: 0.0
      y: 0.0
      z: 0.0
    orientation: 
      x: 0.0
      y: 0.0
      z: 0.0
      w: 1.0
  - 
    position: 
      x: 0.0
      y: 0.025099999999998346
      z: 0.0
    orientation: 
      x: 0.0
      y: 0.0
      z: 0.0
      w: 1.0
  - 
    position: 
      x: -30.124531285033605
      y: -25.000132802886846
      z: -1.798126273500067e-05
    orientation: 
      x: -2.3310278706722336e-06
      y: -4.1658135188596076e-05
      z: 0.00029391316756164693
      w: 0.9999999559371071
twist: 
  - 
    linear: 
      x: 0.0
      y: 0.0
      z: 0.0
    angular: 
      x: 0.0
      y: 0.0
      z: 0.0
  - 
    linear: 
      x: 0.0
      y: 0.0
      z: 0.0
    angular: 
      x: 0.0
      y: 0.0
      z: 0.0
  - 
    linear: 
      x: -9.345156185554954e-06
      y: 9.207367968529169e-05
      z: -0.010506488993234923
    angular: 
      x: -0.0008187091093124633
      y: -0.006047044715912796
      z: 7.464684202948061e-05
---
name: 
  - ground_plane
  - Spath
  - xbot-u
pose: 
  - 
    position: 
      x: 0.0
      y: 0.0
      z: 0.0
    orientation: 
      x: 0.0
      y: 0.0
      z: 0.0
      w: 1.0
  - 
    position: 
      x: 0.0
      y: 0.025099999999998346
      z: 0.0
    orientation: 
      x: 0.0
      y: 0.0
      z: 0.0
      w: 1.0
  - 
    position: 
      x: -30.124535369729177
      y: -25.000132747584697
      z: -1.798439288291931e-05
    orientation: 
      x: -2.222646462035443e-06
      y: -4.1656427890153725e-05
      z: 0.0002939440559089974
      w: 0.9999999559283461
twist: 
  - 
    linear: 
      x: 0.0
      y: 0.0
      z: 0.0
    angular: 
      x: 0.0
      y: 0.0
      z: 0.0
  - 
    linear: 
      x: 0.0
      y: 0.0
      z: 0.0
    angular: 
      x: 0.0
      y: 0.0
      z: 0.0
  - 
    linear: 
      x: -9.444495377442137e-06
      y: 0.00010584446032455735
      z: -0.01049948391536753
    angular: 
      x: -0.000778713293390279
      y: -0.006046735982015606
      z: 8.518353824214519e-05
---
name: 
  - ground_plane
  - Spath
  - xbot-u
pose: 
  - 
    position: 
      x: 0.0
      y: 0.0
      z: 0.0
    orientation: 
      x: 0.0
      y: 0.0
      z: 0.0
      w: 1.0
  - 
    position: 
      x: 0.0
      y: 0.025099999999998346
      z: 0.0
    orientation: 
      x: 0.0
      y: 0.0
      z: 0.0
      w: 1.0
  - 
    position: 
      x: -30.124539451052588
      y: -25.00013278429435
      z: -1.798199076530338e-05
    orientation: 
      x: -2.2923339786493345e-06
      y: -4.165837979732984e-05
      z: 0.0002939415395933667
      w: 0.9999999559288472
twist: 
  - 
    linear: 
      x: 0.0
      y: 0.0
      z: 0.0
    angular: 
      x: 0.0
      y: 0.0
      z: 0.0
  - 
    linear: 
      x: 0.0
      y: 0.0
      z: 0.0
    angular: 
      x: 0.0
      y: 0.0
      z: 0.0
  - 
    linear: 
      x: -9.421920561186216e-06
      y: 9.056252056391758e-05
      z: -0.010509610446127181
    angular: 
      x: -0.0008089430702915744
      y: -0.006045847815478438
      z: 7.349110123375798e-05
---
name: 
  - ground_plane
  - Spath
  - xbot-u
pose: 
  - 
    position: 
      x: 0.0
      y: 0.0
      z: 0.0
    orientation: 
      x: 0.0
      y: 0.0
      z: 0.0
      w: 1.0
  - 
    position: 
      x: 0.0
      y: 0.025099999999998346
      z: 0.0
    orientation: 
      x: 0.0
      y: 0.0
      z: 0.0
      w: 1.0
  - 
    position: 
      x: -30.124543532265676
      y: -25.00013283410188
      z: -1.7987875680303134e-05
    orientation: 
      x: -2.371354968678736e-06
      y: -4.1659803655719164e-05
      z: 0.0002939342196733076
      w: 0.9999999559307552
twist: 
  - 
    linear: 
      x: 0.0
      y: 0.0
      z: 0.0
    angular: 
      x: 0.0
      y: 0.0
      z: 0.0
  - 
    linear: 
      x: 0.0
      y: 0.0
      z: 0.0
    angular: 
      x: 0.0
      y: 0.0
      z: 0.0
  - 
    linear: 
      x: -9.347419068313732e-06
      y: 8.816240378371537e-05
      z: -0.010509233327983298
    angular: 
      x: -0.0008384226269022564
      y: -0.006047122279416927
      z: 7.17677982024829e-05
---
name: 
  - ground_plane
  - Spath
  - xbot-u
pose: 
  - 
    position: 
      x: 0.0
      y: 0.0
      z: 0.0
    orientation: 
      x: 0.0
      y: 0.0
      z: 0.0
      w: 1.0
  - 
    position: 
      x: 0.0
      y: 0.025099999999998346
      z: 0.0
    orientation: 
      x: 0.0
      y: 0.0
      z: 0.0
      w: 1.0
  - 
    position: 
      x: -30.124547616663524
      y: -25.00013277840187
      z: -1.7991411143336578e-05
    orientation: 
      x: -2.268431667885644e-06
      y: -4.165817775499296e-05
      z: 0.0002939652923843736
      w: 0.9999999559219277
twist: 
  - 
    linear: 
      x: 0.0
      y: 0.0
      z: 0.0
    angular: 
      x: 0.0
      y: 0.0
      z: 0.0
  - 
    linear: 
      x: 0.0
      y: 0.0
      z: 0.0
    angular: 
      x: 0.0
      y: 0.0
      z: 0.0
  - 
    linear: 
      x: -9.335291717383828e-06
      y: 0.00010709844143292247
      z: -0.01049636601980825
    angular: 
      x: -0.0007968696917061899
      y: -0.00604807202387398
      z: 8.623090166035817e-05
---
name: 
  - ground_plane
  - Spath
  - xbot-u
pose: 
  - 
    position: 
      x: 0.0
      y: 0.0
      z: 0.0
    orientation: 
      x: 0.0
      y: 0.0
      z: 0.0
      w: 1.0
  - 
    position: 
      x: 0.0
      y: 0.025099999999998346
      z: 0.0
    orientation: 
      x: 0.0
      y: 0.0
      z: 0.0
      w: 1.0
  - 
    position: 
      x: -30.124551672593128
      y: -25.00013281629998
      z: -1.798201808811406e-05
    orientation: 
      x: -2.3415762499531775e-06
      y: -4.16614072742148e-05
      z: 0.0002939623335441664
      w: 0.9999999559224944
twist: 
  - 
    linear: 
      x: 0.0
      y: 0.0
      z: 0.0
    angular: 
      x: 0.0
      y: 0.0
      z: 0.0
  - 
    linear: 
      x: 0.0
      y: 0.0
      z: 0.0
    angular: 
      x: 0.0
      y: 0.0
      z: 0.0
  - 
    linear: 
      x: -9.315899321414405e-06
      y: 9.304010999871301e-05
      z: -0.010502216474565642
    angular: 
      x: -0.0008242319356253053
      y: -0.006047709868776297
      z: 7.545600687014022e-05
---
name: 
  - ground_plane
  - Spath
  - xbot-u
pose: 
  - 
    position: 
      x: 0.0
      y: 0.0
      z: 0.0
    orientation: 
      x: 0.0
      y: 0.0
      z: 0.0
      w: 1.0
  - 
    position: 
      x: 0.0
      y: 0.025099999999998346
      z: 0.0
    orientation: 
      x: 0.0
      y: 0.0
      z: 0.0
      w: 1.0
  - 
    position: 
      x: -30.124555732572045
      y: -25.000132763622148
      z: -1.7978678731100928e-05
    orientation: 
      x: -2.2318404269522402e-06
      y: -4.166051151444525e-05
      z: 0.0002939922487643257
      w: 0.9999999559139883
twist: 
  - 
    linear: 
      x: 0.0
      y: 0.0
      z: 0.0
    angular: 
      x: 0.0
      y: 0.0
      z: 0.0
  - 
    linear: 
      x: 0.0
      y: 0.0
      z: 0.0
    angular: 
      x: 0.0
      y: 0.0
      z: 0.0
  - 
    linear: 
      x: -9.371581690837197e-06
      y: 0.00010685586944283467
      z: -0.010496065681465492
    angular: 
      x: -0.0007832638979445446
      y: -0.006046892546030349
      z: 8.602613032705064e-05
---
name: 
  - ground_plane
  - Spath
  - xbot-u
pose: 
  - 
    position: 
      x: 0.0
      y: 0.0
      z: 0.0
    orientation: 
      x: 0.0
      y: 0.0
      z: 0.0
      w: 1.0
  - 
    position: 
      x: 0.0
      y: 0.025099999999998346
      z: 0.0
    orientation: 
      x: 0.0
      y: 0.0
      z: 0.0
      w: 1.0
  - 
    position: 
      x: -30.124559789754972
      y: -25.00013280244456
      z: -1.7972012463118858e-05
    orientation: 
      x: -2.2998708016749434e-06
      y: -4.1662840665270315e-05
      z: 0.00029398893884368527
      w: 0.99999995591471
twist: 
  - 
    linear: 
      x: 0.0
      y: 0.0
      z: 0.0
    angular: 
      x: 0.0
      y: 0.0
      z: 0.0
  - 
    linear: 
      x: 0.0
      y: 0.0
      z: 0.0
    angular: 
      x: 0.0
      y: 0.0
      z: 0.0
  - 
    linear: 
      x: -9.330223148912645e-06
      y: 9.183042998493003e-05
      z: -0.010507792720528063
    angular: 
      x: -0.0008130083371699715
      y: -0.006045363686769776
      z: 7.452388520338851e-05
---
name: 
  - ground_plane
  - Spath
  - xbot-u
pose: 
  - 
    position: 
      x: 0.0
      y: 0.0
      z: 0.0
    orientation: 
      x: 0.0
      y: 0.0
      z: 0.0
      w: 1.0
  - 
    position: 
      x: 0.0
      y: 0.025099999999998346
      z: 0.0
    orientation: 
      x: 0.0
      y: 0.0
      z: 0.0
      w: 1.0
  - 
    position: 
      x: -30.12456384706707
      y: -25.000132853997492
      z: -1.797581631413081e-05
    orientation: 
      x: -2.3770922016479595e-06
      y: -4.166423634489237e-05
      z: 0.00029398095707370387
      w: 0.9999999559168179
twist: 
  - 
    linear: 
      x: 0.0
      y: 0.0
      z: 0.0
    angular: 
      x: 0.0
      y: 0.0
      z: 0.0
  - 
    linear: 
      x: 0.0
      y: 0.0
      z: 0.0
    angular: 
      x: 0.0
      y: 0.0
      z: 0.0
  - 
    linear: 
      x: -9.239306203331216e-06
      y: 8.974233457937253e-05
      z: -0.010509377927624994
    angular: 
      x: -0.0008422551498404287
      y: -0.006045929657182106
      z: 7.303180478110023e-05
---
name: 
  - ground_plane
  - Spath
  - xbot-u
pose: 
  - 
    position: 
      x: 0.0
      y: 0.0
      z: 0.0
    orientation: 
      x: 0.0
      y: 0.0
      z: 0.0
      w: 1.0
  - 
    position: 
      x: 0.0
      y: 0.025099999999998346
      z: 0.0
    orientation: 
      x: 0.0
      y: 0.0
      z: 0.0
      w: 1.0
  - 
    position: 
      x: -30.124567907508514
      y: -25.000132799799445
      z: -1.7979165509274253e-05
    orientation: 
      x: -2.2721824045777186e-06
      y: -4.166222318994819e-05
      z: 0.0002940114603680514
      w: 0.9999999559081778
twist: 
  - 
    linear: 
      x: 0.0
      y: 0.0
      z: 0.0
    angular: 
      x: 0.0
      y: 0.0
      z: 0.0
  - 
    linear: 
      x: 0.0
      y: 0.0
      z: 0.0
    angular: 
      x: 0.0
      y: 0.0
      z: 0.0
  - 
    linear: 
      x: -9.218332012781924e-06
      y: 0.00010899705697585893
      z: -0.010498546005400759
    angular: 
      x: -0.0008005342906964692
      y: -0.006046154239115821
      z: 8.773086521094495e-05
---
name: 
  - ground_plane
  - Spath
  - xbot-u
pose: 
  - 
    position: 
      x: 0.0
      y: 0.0
      z: 0.0
    orientation: 
      x: 0.0
      y: 0.0
      z: 0.0
      w: 1.0
  - 
    position: 
      x: 0.0
      y: 0.025099999999998346
      z: 0.0
    orientation: 
      x: 0.0
      y: 0.0
      z: 0.0
      w: 1.0
  - 
    position: 
      x: -30.124571964774677
      y: -25.000132835317483
      z: -1.7974378635265964e-05
    orientation: 
      x: -2.3439619490903215e-06
      y: -4.1664057077793175e-05
      z: 0.0002940093656492821
      w: 0.9999999559085515
twist: 
  - 
    linear: 
      x: 0.0
      y: 0.0
      z: 0.0
    angular: 
      x: 0.0
      y: 0.0
      z: 0.0
  - 
    linear: 
      x: 0.0
      y: 0.0
      z: 0.0
    angular: 
      x: 0.0
      y: 0.0
      z: 0.0
  - 
    linear: 
      x: -9.173113389573245e-06
      y: 9.575944255431562e-05
      z: -0.01050547300294201
    angular: 
      x: -0.0008281336196362262
      y: -0.006045743129255896
      z: 7.753572729006224e-05
---
name: 
  - ground_plane
  - Spath
  - xbot-u
pose: 
  - 
    position: 
      x: 0.0
      y: 0.0
      z: 0.0
    orientation: 
      x: 0.0
      y: 0.0
      z: 0.0
      w: 1.0
  - 
    position: 
      x: 0.0
      y: 0.025099999999998346
      z: 0.0
    orientation: 
      x: 0.0
      y: 0.0
      z: 0.0
      w: 1.0
  - 
    position: 
      x: -30.12457602537174
      y: -25.0001327800615
      z: -1.7975422410332342e-05
    orientation: 
      x: -2.232890627103694e-06
      y: -4.1661978326698793e-05
      z: 0.00029404021313977706
      w: 0.9999999558998224
twist: 
  - 
    linear: 
      x: 0.0
      y: 0.0
      z: 0.0
    angular: 
      x: 0.0
      y: 0.0
      z: 0.0
  - 
    linear: 
      x: 0.0
      y: 0.0
      z: 0.0
    angular: 
      x: 0.0
      y: 0.0
      z: 0.0
  - 
    linear: 
      x: -9.281287839064088e-06
      y: 0.00010959492726204218
      z: -0.010499742614066297
    angular: 
      x: -0.0007871449137471698
      y: -0.006044968870012125
      z: 8.812089269990211e-05
---
name: 
  - ground_plane
  - Spath
  - xbot-u
pose: 
  - 
    position: 
      x: 0.0
      y: 0.0
      z: 0.0
    orientation: 
      x: 0.0
      y: 0.0
      z: 0.0
      w: 1.0
  - 
    position: 
      x: 0.0
      y: 0.025099999999998346
      z: 0.0
    orientation: 
      x: 0.0
      y: 0.0
      z: 0.0
      w: 1.0
  - 
    position: 
      x: -30.124580082603373
      y: -25.000132816603614
      z: -1.7972483256745164e-05
    orientation: 
      x: -2.2997404785531102e-06
      y: -4.166335827605433e-05
      z: 0.0002940377275605981
      w: 0.9999999559003443
twist: 
  - 
    linear: 
      x: 0.0
      y: 0.0
      z: 0.0
    angular: 
      x: 0.0
      y: 0.0
      z: 0.0
  - 
    linear: 
      x: 0.0
      y: 0.0
      z: 0.0
    angular: 
      x: 0.0
      y: 0.0
      z: 0.0
  - 
    linear: 
      x: -9.244631483980824e-06
      y: 9.434697935167336e-05
      z: -0.0105113886842213
    angular: 
      x: -0.0008167072015291956
      y: -0.006043577291101978
      z: 7.6450793830662e-05
---
name: 
  - ground_plane
  - Spath
  - xbot-u
pose: 
  - 
    position: 
      x: 0.0
      y: 0.0
      z: 0.0
    orientation: 
      x: 0.0
      y: 0.0
      z: 0.0
      w: 1.0
  - 
    position: 
      x: 0.0
      y: 0.025099999999998346
      z: 0.0
    orientation: 
      x: 0.0
      y: 0.0
      z: 0.0
      w: 1.0
  - 
    position: 
      x: -30.124584142389526
      y: -25.000132763129987
      z: -1.7978367930826522e-05
    orientation: 
      x: -2.1852320130481016e-06
      y: -4.1660600473320614e-05
      z: 0.0002940679178531019
      w: 0.9999999558918383
twist: 
  - 
    linear: 
      x: 0.0
      y: 0.0
      z: 0.0
    angular: 
      x: 0.0
      y: 0.0
      z: 0.0
  - 
    linear: 
      x: 0.0
      y: 0.0
      z: 0.0
    angular: 
      x: 0.0
      y: 0.0
      z: 0.0
  - 
    linear: 
      x: -9.351698251258353e-06
      y: 0.00010753590255799857
      z: -0.010509635690269916
    angular: 
      x: -0.0007780417121465414
      y: -0.006041924555298913
      z: 8.656514687201803e-05
---
name: 
  - ground_plane
  - Spath
  - xbot-u
pose: 
  - 
    position: 
      x: 0.0
      y: 0.0
      z: 0.0
    orientation: 
      x: 0.0
      y: 0.0
      z: 0.0
      w: 1.0
  - 
    position: 
      x: 0.0
      y: 0.025099999999998346
      z: 0.0
    orientation: 
      x: 0.0
      y: 0.0
      z: 0.0
      w: 1.0
  - 
    position: 
      x: -30.124588197997898
      y: -25.00013280149159
      z: -1.7981760499274912e-05
    orientation: 
      x: -2.2499771880852326e-06
      y: -4.166110464905231e-05
      z: 0.0002940647626367375
      w: 0.9999999558926017
twist: 
  - 
    linear: 
      x: 0.0
      y: 0.0
      z: 0.0
    angular: 
      x: 0.0
      y: 0.0
      z: 0.0
  - 
    linear: 
      x: 0.0
      y: 0.0
      z: 0.0
    angular: 
      x: 0.0
      y: 0.0
      z: 0.0
  - 
    linear: 
      x: -9.309394847078524e-06
      y: 9.221460966740637e-05
      z: -0.010524230041351118
    angular: 
      x: -0.0008098907490128951
      y: -0.006039829654300793
      z: 7.484357324250106e-05
---
name: 
  - ground_plane
  - Spath
  - xbot-u
pose: 
  - 
    position: 
      x: 0.0
      y: 0.0
      z: 0.0
    orientation: 
      x: 0.0
      y: 0.0
      z: 0.0
      w: 1.0
  - 
    position: 
      x: 0.0
      y: 0.025099999999998346
      z: 0.0
    orientation: 
      x: 0.0
      y: 0.0
      z: 0.0
      w: 1.0
  - 
    position: 
      x: -30.124592252343923
      y: -25.00013285270749
      z: -1.7995220192190686e-05
    orientation: 
      x: -2.325144995295742e-06
      y: -4.166083943205834e-05
      z: 0.0002940568897256303
      w: 0.9999999558947559
twist: 
  - 
    linear: 
      x: 0.0
      y: 0.0
      z: 0.0
    angular: 
      x: 0.0
      y: 0.0
      z: 0.0
  - 
    linear: 
      x: 0.0
      y: 0.0
      z: 0.0
    angular: 
      x: 0.0
      y: 0.0
      z: 0.0
  - 
    linear: 
      x: -9.216142510867081e-06
      y: 8.995470942958523e-05
      z: -0.010527307850734649
    angular: 
      x: -0.0008409518828732279
      y: -0.006040093572812154
      z: 7.322388432193146e-05
---
name: 
  - ground_plane
  - Spath
  - xbot-u
pose: 
  - 
    position: 
      x: 0.0
      y: 0.0
      z: 0.0
    orientation: 
      x: 0.0
      y: 0.0
      z: 0.0
      w: 1.0
  - 
    position: 
      x: 0.0
      y: 0.025099999999998346
      z: 0.0
    orientation: 
      x: 0.0
      y: 0.0
      z: 0.0
      w: 1.0
  - 
    position: 
      x: -30.1245963085527
      y: -25.00013279818067
      z: -1.8007024132904448e-05
    orientation: 
      x: -2.219155357156227e-06
      y: -4.165742924227241e-05
      z: 0.00029408749771040886
      w: 0.9999999558861379
twist: 
  - 
    linear: 
      x: 0.0
      y: 0.0
      z: 0.0
    angular: 
      x: 0.0
      y: 0.0
      z: 0.0
  - 
    linear: 
      x: 0.0
      y: 0.0
      z: 0.0
    angular: 
      x: 0.0
      y: 0.0
      z: 0.0
  - 
    linear: 
      x: -9.19016845099107e-06
      y: 0.00010908387176916039
      z: -0.010516836542750709
    angular: 
      x: -0.0008007194489114704
      y: -0.0060402500265756675
      z: 8.782951996560294e-05
---
name: 
  - ground_plane
  - Spath
  - xbot-u
pose: 
  - 
    position: 
      x: 0.0
      y: 0.0
      z: 0.0
    orientation: 
      x: 0.0
      y: 0.0
      z: 0.0
      w: 1.0
  - 
    position: 
      x: 0.0
      y: 0.025099999999998346
      z: 0.0
    orientation: 
      x: 0.0
      y: 0.0
      z: 0.0
      w: 1.0
  - 
    position: 
      x: -30.1246003607224
      y: -25.000132833510264
      z: -1.8008784951506485e-05
    orientation: 
      x: -2.290658741666793e-06
      y: -4.1658097599940635e-05
      z: 0.0002940854550841359
      w: 0.9999999558865494
twist: 
  - 
    linear: 
      x: 0.0
      y: 0.0
      z: 0.0
    angular: 
      x: 0.0
      y: 0.0
      z: 0.0
  - 
    linear: 
      x: 0.0
      y: 0.0
      z: 0.0
    angular: 
      x: 0.0
      y: 0.0
      z: 0.0
  - 
    linear: 
      x: -9.140084091768634e-06
      y: 9.575312669504819e-05
      z: -0.010523285803669605
    angular: 
      x: -0.0008294993387982542
      y: -0.006039957692007405
      z: 7.756254832060944e-05
---
name: 
  - ground_plane
  - Spath
  - xbot-u
pose: 
  - 
    position: 
      x: 0.0
      y: 0.0
      z: 0.0
    orientation: 
      x: 0.0
      y: 0.0
      z: 0.0
      w: 1.0
  - 
    position: 
      x: 0.0
      y: 0.025099999999998346
      z: 0.0
    orientation: 
      x: 0.0
      y: 0.0
      z: 0.0
      w: 1.0
  - 
    position: 
      x: -30.124604415477734
      y: -25.00013277806761
      z: -1.8014557182866042e-05
    orientation: 
      x: -2.179860421574893e-06
      y: -4.165516272278781e-05
      z: 0.0002941163530116717
      w: 0.9999999558778324
twist: 
  - 
    linear: 
      x: 0.0
      y: 0.0
      z: 0.0
    angular: 
      x: 0.0
      y: 0.0
      z: 0.0
  - 
    linear: 
      x: 0.0
      y: 0.0
      z: 0.0
    angular: 
      x: 0.0
      y: 0.0
      z: 0.0
  - 
    linear: 
      x: -9.245676371063064e-06
      y: 0.00010951233809062481
      z: -0.010516546292069688
    angular: 
      x: -0.0007894250023840845
      y: -0.0060394275840618
      z: 8.809019145493898e-05
---
name: 
  - ground_plane
  - Spath
  - xbot-u
pose: 
  - 
    position: 
      x: 0.0
      y: 0.0
      z: 0.0
    orientation: 
      x: 0.0
      y: 0.0
      z: 0.0
      w: 1.0
  - 
    position: 
      x: 0.0
      y: 0.025099999999998346
      z: 0.0
    orientation: 
      x: 0.0
      y: 0.0
      z: 0.0
      w: 1.0
  - 
    position: 
      x: -30.124608466523107
      y: -25.000132814555958
      z: -1.801440881155081e-05
    orientation: 
      x: -2.247420320988121e-06
      y: -4.165591207120243e-05
      z: 0.000294113868626537
      w: 0.9999999558783822
twist: 
  - 
    linear: 
      x: 0.0
      y: 0.0
      z: 0.0
    angular: 
      x: 0.0
      y: 0.0
      z: 0.0
  - 
    linear: 
      x: 0.0
      y: 0.0
      z: 0.0
    angular: 
      x: 0.0
      y: 0.0
      z: 0.0
  - 
    linear: 
      x: -9.209652564979957e-06
      y: 9.420408387701489e-05
      z: -0.010526911602217508
    angular: 
      x: -0.0008196940857307902
      y: -0.006038357577180893
      z: 7.637361229176183e-05
---
name: 
  - ground_plane
  - Spath
  - xbot-u
pose: 
  - 
    position: 
      x: 0.0
      y: 0.0
      z: 0.0
    orientation: 
      x: 0.0
      y: 0.0
      z: 0.0
      w: 1.0
  - 
    position: 
      x: 0.0
      y: 0.025099999999998346
      z: 0.0
    orientation: 
      x: 0.0
      y: 0.0
      z: 0.0
      w: 1.0
  - 
    position: 
      x: -30.124612517043985
      y: -25.00013286416187
      z: -1.8022296989661513e-05
    orientation: 
      x: -2.324437109716893e-06
      y: -4.165618426806714e-05
      z: 0.0002941065714690215
      w: 0.9999999558803411
twist: 
  - 
    linear: 
      x: 0.0
      y: 0.0
      z: 0.0
    angular: 
      x: 0.0
      y: 0.0
      z: 0.0
  - 
    linear: 
      x: 0.0
      y: 0.0
      z: 0.0
    angular: 
      x: 0.0
      y: 0.0
      z: 0.0
  - 
    linear: 
      x: -9.133308148843826e-06
      y: 9.177560810355264e-05
      z: -0.010526774547827309
    angular: 
      x: -0.0008492297180130843
      y: -0.006039462763341043
      z: 7.462766797725024e-05
---
name: 
  - ground_plane
  - Spath
  - xbot-u
pose: 
  - 
    position: 
      x: 0.0
      y: 0.0
      z: 0.0
    orientation: 
      x: 0.0
      y: 0.0
      z: 0.0
      w: 1.0
  - 
    position: 
      x: 0.0
      y: 0.025099999999998346
      z: 0.0
    orientation: 
      x: 0.0
      y: 0.0
      z: 0.0
      w: 1.0
  - 
    position: 
      x: -30.124616570287273
      y: -25.000132808254925
      z: -1.802770717151958e-05
    orientation: 
      x: -2.21934379704103e-06
      y: -4.1653474427538205e-05
      z: 0.00029413767329999224
      w: 0.999999955871545
twist: 
  - 
    linear: 
      x: 0.0
      y: 0.0
      z: 0.0
    angular: 
      x: 0.0
      y: 0.0
      z: 0.0
  - 
    linear: 
      x: 0.0
      y: 0.0
      z: 0.0
    angular: 
      x: 0.0
      y: 0.0
      z: 0.0
  - 
    linear: 
      x: -9.130304522630625e-06
      y: 0.00011069628657952907
      z: -0.0105141714226029
    angular: 
      x: -0.000807648354627435
      y: -0.006040236959772764
      z: 8.907997421236415e-05
---
name: 
  - ground_plane
  - Spath
  - xbot-u
pose: 
  - 
    position: 
      x: 0.0
      y: 0.0
      z: 0.0
    orientation: 
      x: 0.0
      y: 0.0
      z: 0.0
      w: 1.0
  - 
    position: 
      x: 0.0
      y: 0.025099999999998346
      z: 0.0
    orientation: 
      x: 0.0
      y: 0.0
      z: 0.0
      w: 1.0
  - 
    position: 
      x: -30.124620620325093
      y: -25.00013284252796
      z: -1.8023219933160917e-05
    orientation: 
      x: -2.291141171366705e-06
      y: -4.1654906214341474e-05
      z: 0.0002941360103752243
      w: 0.9999999558718125
twist: 
  - 
    linear: 
      x: 0.0
      y: 0.0
      z: 0.0
    angular: 
      x: 0.0
      y: 0.0
      z: 0.0
  - 
    linear: 
      x: 0.0
      y: 0.0
      z: 0.0
    angular: 
      x: 0.0
      y: 0.0
      z: 0.0
  - 
    linear: 
      x: -9.097589449694361e-06
      y: 9.718228654595745e-05
      z: -0.010519515550824936
    angular: 
      x: -0.0008353301986662239
      y: -0.006040342536364745
      z: 7.867824980954417e-05
---
name: 
  - ground_plane
  - Spath
  - xbot-u
pose: 
  - 
    position: 
      x: 0.0
      y: 0.0
      z: 0.0
    orientation: 
      x: 0.0
      y: 0.0
      z: 0.0
      w: 1.0
  - 
    position: 
      x: 0.0
      y: 0.025099999999998346
      z: 0.0
    orientation: 
      x: 0.0
      y: 0.0
      z: 0.0
      w: 1.0
  - 
    position: 
      x: -30.124624673693624
      y: -25.000132786174625
      z: -1.802354080915336e-05
    orientation: 
      x: -2.180005352853649e-06
      y: -4.165270740264636e-05
      z: 0.0002941672368208145
      w: 0.9999999558629672
twist: 
  - 
    linear: 
      x: 0.0
      y: 0.0
      z: 0.0
    angular: 
      x: 0.0
      y: 0.0
      z: 0.0
  - 
    linear: 
      x: 0.0
      y: 0.0
      z: 0.0
    angular: 
      x: 0.0
      y: 0.0
      z: 0.0
  - 
    linear: 
      x: -9.223963563139911e-06
      y: 0.0001107867802134779
      z: -0.010512499361264851
    angular: 
      x: -0.0007944048003955713
      y: -0.006040011606596291
      z: 8.909343829765331e-05
---
name: 
  - ground_plane
  - Spath
  - xbot-u
pose: 
  - 
    position: 
      x: 0.0
      y: 0.0
      z: 0.0
    orientation: 
      x: 0.0
      y: 0.0
      z: 0.0
      w: 1.0
  - 
    position: 
      x: 0.0
      y: 0.025099999999998346
      z: 0.0
    orientation: 
      x: 0.0
      y: 0.0
      z: 0.0
      w: 1.0
  - 
    position: 
      x: -30.124628723941377
      y: -25.000132821970467
      z: -1.801911003918022e-05
    orientation: 
      x: -2.2469438813569984e-06
      y: -4.16541163266325e-05
      z: 0.00029416500461326673
      w: 0.9999999558634171
twist: 
  - 
    linear: 
      x: 0.0
      y: 0.0
      z: 0.0
    angular: 
      x: 0.0
      y: 0.0
      z: 0.0
  - 
    linear: 
      x: 0.0
      y: 0.0
      z: 0.0
    angular: 
      x: 0.0
      y: 0.0
      z: 0.0
  - 
    linear: 
      x: -9.200217368226724e-06
      y: 9.536103034513165e-05
      z: -0.010523216033980922
    angular: 
      x: -0.0008240595993004638
      y: -0.006038984617583566
      z: 7.729079808761252e-05
---
name: 
  - ground_plane
  - Spath
  - xbot-u
pose: 
  - 
    position: 
      x: 0.0
      y: 0.0
      z: 0.0
    orientation: 
      x: 0.0
      y: 0.0
      z: 0.0
      w: 1.0
  - 
    position: 
      x: 0.0
      y: 0.025099999999998346
      z: 0.0
    orientation: 
      x: 0.0
      y: 0.0
      z: 0.0
      w: 1.0
  - 
    position: 
      x: -30.12463277409166
      y: -25.000132871000766
      z: -1.802400703088125e-05
    orientation: 
      x: -2.3230925458564102e-06
      y: -4.1654937368823456e-05
      z: 0.00029415791866453347
      w: 0.9999999558652931
twist: 
  - 
    linear: 
      x: 0.0
      y: 0.0
      z: 0.0
    angular: 
      x: 0.0
      y: 0.0
      z: 0.0
  - 
    linear: 
      x: 0.0
      y: 0.0
      z: 0.0
    angular: 
      x: 0.0
      y: 0.0
      z: 0.0
  - 
    linear: 
      x: -9.135164783029628e-06
      y: 9.284082902317776e-05
      z: -0.010523821463664972
    angular: 
      x: -0.0008531748753708247
      y: -0.006040020370792569
      z: 7.547783727429664e-05
---
name: 
  - ground_plane
  - Spath
  - xbot-u
pose: 
  - 
    position: 
      x: 0.0
      y: 0.0
      z: 0.0
    orientation: 
      x: 0.0
      y: 0.0
      z: 0.0
      w: 1.0
  - 
    position: 
      x: 0.0
      y: 0.025099999999998346
      z: 0.0
    orientation: 
      x: 0.0
      y: 0.0
      z: 0.0
      w: 1.0
  - 
    position: 
      x: -30.124636827236177
      y: -25.000132814538947
      z: -1.8027652054053434e-05
    orientation: 
      x: -2.2169048463856942e-06
      y: -4.165265460483268e-05
      z: 0.0002941892246829764
      w: 0.99999995585642
twist: 
  - 
    linear: 
      x: 0.0
      y: 0.0
      z: 0.0
    angular: 
      x: 0.0
      y: 0.0
      z: 0.0
  - 
    linear: 
      x: 0.0
      y: 0.0
      z: 0.0
    angular: 
      x: 0.0
      y: 0.0
      z: 0.0
  - 
    linear: 
      x: -9.141687293661056e-06
      y: 0.00011167950609365055
      z: -0.010512155459719272
    angular: 
      x: -0.0008113179272513493
      y: -0.006040653615452837
      z: 8.987063362567494e-05
---
name: 
  - ground_plane
  - Spath
  - xbot-u
pose: 
  - 
    position: 
      x: 0.0
      y: 0.0
      z: 0.0
    orientation: 
      x: 0.0
      y: 0.0
      z: 0.0
      w: 1.0
  - 
    position: 
      x: 0.0
      y: 0.025099999999998346
      z: 0.0
    orientation: 
      x: 0.0
      y: 0.0
      z: 0.0
      w: 1.0
  - 
    position: 
      x: -30.124640877309055
      y: -25.00013284838549
      z: -1.802244210402648e-05
    orientation: 
      x: -2.287640888466896e-06
      y: -4.165439923471232e-05
      z: 0.0002941877207340309
      w: 0.9999999558566305
twist: 
  - 
    linear: 
      x: 0.0
      y: 0.0
      z: 0.0
    angular: 
      x: 0.0
      y: 0.0
      z: 0.0
  - 
    linear: 
      x: 0.0
      y: 0.0
      z: 0.0
    angular: 
      x: 0.0
      y: 0.0
      z: 0.0
  - 
    linear: 
      x: -9.111026848594543e-06
      y: 9.810039072328277e-05
      z: -0.010518494018024967
    angular: 
      x: -0.0008388394114319804
      y: -0.006040584188041345
      z: 7.942022879429519e-05
---
name: 
  - ground_plane
  - Spath
  - xbot-u
pose: 
  - 
    position: 
      x: 0.0
      y: 0.0
      z: 0.0
    orientation: 
      x: 0.0
      y: 0.0
      z: 0.0
      w: 1.0
  - 
    position: 
      x: 0.0
      y: 0.025099999999998346
      z: 0.0
    orientation: 
      x: 0.0
      y: 0.0
      z: 0.0
      w: 1.0
  - 
    position: 
      x: -30.124644930734593
      y: -25.000132791597323
      z: -1.802286070229364e-05
    orientation: 
      x: -2.1753563850744123e-06
      y: -4.165241279102661e-05
      z: 0.0002942191088074535
      w: 0.9999999558477293
twist: 
  - 
    linear: 
      x: 0.0
      y: 0.0
      z: 0.0
    angular: 
      x: 0.0
      y: 0.0
      z: 0.0
  - 
    linear: 
      x: 0.0
      y: 0.0
      z: 0.0
    angular: 
      x: 0.0
      y: 0.0
      z: 0.0
  - 
    linear: 
      x: -9.241444511809416e-06
      y: 0.00011164209882617599
      z: -0.010512407113737935
    angular: 
      x: -0.0007978204767780906
      y: -0.0060400693507445345
      z: 8.978917945124163e-05
---
name: 
  - ground_plane
  - Spath
  - xbot-u
pose: 
  - 
    position: 
      x: 0.0
      y: 0.0
      z: 0.0
    orientation: 
      x: 0.0
      y: 0.0
      z: 0.0
      w: 1.0
  - 
    position: 
      x: 0.0
      y: 0.025099999999998346
      z: 0.0
    orientation: 
      x: 0.0
      y: 0.0
      z: 0.0
      w: 1.0
  - 
    position: 
      x: -30.12464898099261
      y: -25.00013282706371
      z: -1.801908348886272e-05
    orientation: 
      x: -2.241266360432128e-06
      y: -4.165395194452147e-05
      z: 0.0002942170006693636
      w: 0.9999999558481398
twist: 
  - 
    linear: 
      x: 0.0
      y: 0.0
      z: 0.0
    angular: 
      x: 0.0
      y: 0.0
      z: 0.0
  - 
    linear: 
      x: 0.0
      y: 0.0
      z: 0.0
    angular: 
      x: 0.0
      y: 0.0
      z: 0.0
  - 
    linear: 
      x: -9.215809435788279e-06
      y: 9.616377799504373e-05
      z: -0.01052393830091991
    angular: 
      x: -0.0008274330306352084
      y: -0.0060388702911514155
      z: 7.794639417775884e-05
---
name: 
  - ground_plane
  - Spath
  - xbot-u
pose: 
  - 
    position: 
      x: 0.0
      y: 0.0
      z: 0.0
    orientation: 
      x: 0.0
      y: 0.0
      z: 0.0
      w: 1.0
  - 
    position: 
      x: 0.0
      y: 0.025099999999998346
      z: 0.0
    orientation: 
      x: 0.0
      y: 0.0
      z: 0.0
      w: 1.0
  - 
    position: 
      x: -30.124653031053043
      y: -25.000132875799277
      z: -1.8024977589181645e-05
    orientation: 
      x: -2.3164380599209028e-06
      y: -4.16548419880222e-05
      z: 0.00029421002549171317
      w: 0.9999999558499836
twist: 
  - 
    linear: 
      x: 0.0
      y: 0.0
      z: 0.0
    angular: 
      x: 0.0
      y: 0.0
      z: 0.0
  - 
    linear: 
      x: 0.0
      y: 0.0
      z: 0.0
    angular: 
      x: 0.0
      y: 0.0
      z: 0.0
  - 
    linear: 
      x: -9.150127295385474e-06
      y: 9.359698516272293e-05
      z: -0.010525204179813443
    angular: 
      x: -0.0008565299326810554
      y: -0.006039755693615168
      z: 7.609795620061326e-05
---
name: 
  - ground_plane
  - Spath
  - xbot-u
pose: 
  - 
    position: 
      x: 0.0
      y: 0.0
      z: 0.0
    orientation: 
      x: 0.0
      y: 0.0
      z: 0.0
      w: 1.0
  - 
    position: 
      x: 0.0
      y: 0.025099999999998346
      z: 0.0
    orientation: 
      x: 0.0
      y: 0.0
      z: 0.0
      w: 1.0
  - 
    position: 
      x: -30.12465708397778
      y: -25.000132819012418
      z: -1.802978380793796e-05
    orientation: 
      x: -2.209251891638859e-06
      y: -4.165258840053956e-05
      z: 0.0002942414529441831
      w: 0.9999999558410733
twist: 
  - 
    linear: 
      x: 0.0
      y: 0.0
      z: 0.0
    angular: 
      x: 0.0
      y: 0.0
      z: 0.0
  - 
    linear: 
      x: 0.0
      y: 0.0
      z: 0.0
    angular: 
      x: 0.0
      y: 0.0
      z: 0.0
  - 
    linear: 
      x: -9.156681049955762e-06
      y: 0.00011238719559092207
      z: -0.01051404166278695
    angular: 
      x: -0.0008146566541009446
      y: -0.006040262976342269
      z: 9.045459127587142e-05
---
name: 
  - ground_plane
  - Spath
  - xbot-u
pose: 
  - 
    position: 
      x: 0.0
      y: 0.0
      z: 0.0
    orientation: 
      x: 0.0
      y: 0.0
      z: 0.0
      w: 1.0
  - 
    position: 
      x: 0.0
      y: 0.025099999999998346
      z: 0.0
    orientation: 
      x: 0.0
      y: 0.0
      z: 0.0
      w: 1.0
  - 
    position: 
      x: -30.12466113370986
      y: -25.00013285262482
      z: -1.8025730764703596e-05
    orientation: 
      x: -2.279132986023766e-06
      y: -4.165433223854806e-05
      z: 0.0002942400376908808
      w: 0.9999999558412602
twist: 
  - 
    linear: 
      x: 0.0
      y: 0.0
      z: 0.0
    angular: 
      x: 0.0
      y: 0.0
      z: 0.0
  - 
    linear: 
      x: 0.0
      y: 0.0
      z: 0.0
    angular: 
      x: 0.0
      y: 0.0
      z: 0.0
  - 
    linear: 
      x: -9.122884923370121e-06
      y: 9.876626989966124e-05
      z: -0.01052075858187158
    angular: 
      x: -0.0008421725393608845
      y: -0.006040093293371083
      z: 7.997163999405905e-05
---
name: 
  - ground_plane
  - Spath
  - xbot-u
pose: 
  - 
    position: 
      x: 0.0
      y: 0.0
      z: 0.0
    orientation: 
      x: 0.0
      y: 0.0
      z: 0.0
      w: 1.0
  - 
    position: 
      x: 0.0
      y: 0.025099999999998346
      z: 0.0
    orientation: 
      x: 0.0
      y: 0.0
      z: 0.0
      w: 1.0
  - 
    position: 
      x: -30.124665186659797
      y: -25.000132795566635
      z: -1.8027249515162325e-05
    orientation: 
      x: -2.16597214016181e-06
      y: -4.165233326299778e-05
      z: 0.00029427152655186827
      w: 0.9999999558323293
twist: 
  - 
    linear: 
      x: 0.0
      y: 0.0
      z: 0.0
    angular: 
      x: 0.0
      y: 0.0
      z: 0.0
  - 
    linear: 
      x: 0.0
      y: 0.0
      z: 0.0
    angular: 
      x: 0.0
      y: 0.0
      z: 0.0
  - 
    linear: 
      x: -9.253439472345533e-06
      y: 0.00011226725517599903
      z: -0.010514937255503166
    angular: 
      x: -0.0008011411293728019
      y: -0.006039498115608641
      z: 9.03097992793003e-05
---
name: 
  - ground_plane
  - Spath
  - xbot-u
pose: 
  - 
    position: 
      x: 0.0
      y: 0.0
      z: 0.0
    orientation: 
      x: 0.0
      y: 0.0
      z: 0.0
      w: 1.0
  - 
    position: 
      x: 0.0
      y: 0.025099999999998346
      z: 0.0
    orientation: 
      x: 0.0
      y: 0.0
      z: 0.0
      w: 1.0
  - 
    position: 
      x: -30.124669236341347
      y: -25.00013283084618
      z: -1.802442780229896e-05
    orientation: 
      x: -2.2311409042761593e-06
      y: -4.165384782456772e-05
      z: 0.00029426948903007755
      w: 0.9999999558327224
twist: 
  - 
    linear: 
      x: 0.0
      y: 0.0
      z: 0.0
    angular: 
      x: 0.0
      y: 0.0
      z: 0.0
  - 
    linear: 
      x: 0.0
      y: 0.0
      z: 0.0
    angular: 
      x: 0.0
      y: 0.0
      z: 0.0
  - 
    linear: 
      x: -9.225336482764253e-06
      y: 9.675372400955813e-05
      z: -0.010526663328584247
    angular: 
      x: -0.0008307495847648473
      y: -0.006038236544086668
      z: 7.843941305522662e-05
---
name: 
  - ground_plane
  - Spath
  - xbot-u
pose: 
  - 
    position: 
      x: 0.0
      y: 0.0
      z: 0.0
    orientation: 
      x: 0.0
      y: 0.0
      z: 0.0
      w: 1.0
  - 
    position: 
      x: 0.0
      y: 0.025099999999998346
      z: 0.0
    orientation: 
      x: 0.0
      y: 0.0
      z: 0.0
      w: 1.0
  - 
    position: 
      x: -30.124673285726978
      y: -25.000132879411343
      z: -1.8031143563357332e-05
    orientation: 
      x: -2.3056221940190682e-06
      y: -4.165471025189507e-05
      z: 0.0002942625775473977
      w: 0.9999999558345515
twist: 
  - 
    linear: 
      x: 0.0
      y: 0.0
      z: 0.0
    angular: 
      x: 0.0
      y: 0.0
      z: 0.0
  - 
    linear: 
      x: 0.0
      y: 0.0
      z: 0.0
    angular: 
      x: 0.0
      y: 0.0
      z: 0.0
  - 
    linear: 
      x: -9.15909910387952e-06
      y: 9.415755437329151e-05
      z: -0.010528069057546913
    angular: 
      x: -0.0008598447594255713
      y: -0.0060390716920144605
      z: 7.656819165589854e-05
---
name: 
  - ground_plane
  - Spath
  - xbot-u
pose: 
  - 
    position: 
      x: 0.0
      y: 0.0
      z: 0.0
    orientation: 
      x: 0.0
      y: 0.0
      z: 0.0
      w: 1.0
  - 
    position: 
      x: 0.0
      y: 0.025099999999998346
      z: 0.0
    orientation: 
      x: 0.0
      y: 0.0
      z: 0.0
      w: 1.0
  - 
    position: 
      x: -30.124677337880335
      y: -25.00013282241304
      z: -1.8036657222442187e-05
    orientation: 
      x: -2.19771814488386e-06
      y: -4.1652433875296605e-05
      z: 0.0002942940837016774
      w: 0.9999999558256177
twist: 
  - 
    linear: 
      x: 0.0
      y: 0.0
      z: 0.0
    angular: 
      x: 0.0
      y: 0.0
      z: 0.0
  - 
    linear: 
      x: 0.0
      y: 0.0
      z: 0.0
    angular: 
      x: 0.0
      y: 0.0
      z: 0.0
  - 
    linear: 
      x: -9.166174656163352e-06
      y: 0.00011291754372135194
      z: -0.010517009784591748
    angular: 
      x: -0.0008179651369940723
      y: -0.006039535279047051
      z: 9.090221895479428e-05
---
name: 
  - ground_plane
  - Spath
  - xbot-u
pose: 
  - 
    position: 
      x: 0.0
      y: 0.0
      z: 0.0
    orientation: 
      x: 0.0
      y: 0.0
      z: 0.0
      w: 1.0
  - 
    position: 
      x: 0.0
      y: 0.025099999999998346
      z: 0.0
    orientation: 
      x: 0.0
      y: 0.0
      z: 0.0
      w: 1.0
  - 
    position: 
      x: -30.124681386783976
      y: -25.00013285588849
      z: -1.8033167053399524e-05
    orientation: 
      x: -2.267004876232551e-06
      y: -4.1654149082844314e-05
      z: 0.0002942927199886037
      w: 0.9999999558257929
twist: 
  - 
    linear: 
      x: 0.0
      y: 0.0
      z: 0.0
    angular: 
      x: 0.0
      y: 0.0
      z: 0.0
  - 
    linear: 
      x: 0.0
      y: 0.0
      z: 0.0
    angular: 
      x: 0.0
      y: 0.0
      z: 0.0
  - 
    linear: 
      x: -9.131037882260593e-06
      y: 9.927051604658463e-05
      z: -0.010523823110038683
    angular: 
      x: -0.000845487593562059
      y: -0.0060393273976491165
      z: 8.039858218069143e-05
---
name: 
  - ground_plane
  - Spath
  - xbot-u
pose: 
  - 
    position: 
      x: 0.0
      y: 0.0
      z: 0.0
    orientation: 
      x: 0.0
      y: 0.0
      z: 0.0
      w: 1.0
  - 
    position: 
      x: 0.0
